[{"address":"3100 Piper Rd","city":"Alpena","county":"Alpena","day":1,"id":"375c2218-49ce-5fa9-a34c-6dcb7841bc4c","location":"Alano Club","name":"Over The Bridge","slug":"1","state":"MI","time":"10:30","types":"C","latitude":45.0323408827499,"longitude":-83.4786096766316},{"address":"201 S 2nd Ave","city":"Alpena","county":"Alpena","day":1,"id":"44263cb8-e376-546d-8140-9fd491955b7b","location":"1st Congregational","name":"Nooner's","slug":"2","state":"MI","time":"12:00","types":"C","latitude":45.0617342053724,"longitude":-83.4351335506377},{"address":"322 W Chisholm St","city":"Alpena","county":"Alpena","day":1,"id":"99fe3f34-705d-5c3b-b92a-b7babd376e5c","location":"St. Bernard","name":"Men's Group","slug":"3","state":"MI","time":"19:00","types":"C,M","latitude":45.0648774727492,"longitude":-83.4369412461021},{"address":"3100 Piper Rd","city":"Alpena","county":"Alpena","day":1,"id":"4f817cbe-2a11-570d-bf27-e1d81099639b","location":"Alano Club","name":"Over The Bridge","slug":"4","state":"MI","time":"19:00","types":"C","latitude":45.0323408827499,"longitude":-83.4786096766316},{"address":"722 N 2nd Ave","city":"Alpena","county":"Alpena","day":1,"id":"d82d20d5-3b9c-52c8-b78e-b2b430203a53","location":"Salvation Army","name":"Women's Back to Basics","slug":"5","state":"MI","time":"19:00","types":"C,W","latitude":45.0668000616823,"longitude":-83.4252934464545},{"address":"217 N State St","city":"Harrisville","county":"Alcona","day":1,"id":"f78c6b80-e12b-51e9-af80-94802f52a769","location":"United Methodist","name":"Closed Group","slug":"6","state":"MI","time":"19:00","types":"C","latitude":44.6589749162997,"longitude":-83.2952006982013},{"address":"125 W Ontario St","city":"Rogers City","county":"Presque Isle","day":1,"id":"c59f8ca7-c947-5280-b875-4b304ea40ee9","location":"Westminster Presbyterian","name":"Closed Group","slug":"7","state":"MI","time":"19:00","types":"C","latitude":45.4178771999986,"longitude":-83.8143416934185},{"address":"3100 Piper Rd","city":"Alpena","county":"Alpena","day":2,"id":"995ef99d-d502-501b-be0f-3d134904fa0b","location":"Alano Club","name":"Over The Bridge","slug":"8","state":"MI","time":"10:30","types":"C","latitude":45.0323408827499,"longitude":-83.4786096766316},{"address":"322 W Chisholm St","city":"Alpena","county":"Alpena","day":2,"id":"6fe493ae-0886-5246-98a3-24bb0ce57a47","location":"St. Bernard","name":"Miracles Happen","slug":"9","state":"MI","time":"15:30","types":"C","latitude":45.0648774727492,"longitude":-83.4369412461021},{"address":"380 Linden St","city":"Rogers City","county":"Presque Isle","day":2,"id":"0bc4e8bc-d29d-5356-a215-f5c4ebbdcca4","location":"Calvary Bible","name":"Came to Believe","slug":"10","state":"MI","time":"18:30","types":"C","latitude":45.4194349560854,"longitude":-83.8292587414725},{"address":"124 E Washington Ave","city":"Alpena","county":"Alpena","day":2,"id":"4c935bc3-7383-590a-bba0-503afa2117f7","location":"Trinity Episcopal","name":"Closed Group","slug":"11","state":"MI","time":"19:00","types":"C","latitude":45.0611921379749,"longitude":-83.4340833898318},{"address":"3100 Piper Rd","city":"Alpena","county":"Alpena","day":2,"id":"ca070c1c-0d57-51e9-ab6b-a6bed1ddfcf7","location":"Alano Club","name":"Over The Bridge","slug":"12","state":"MI","time":"19:00","types":"C","latitude":45.0323408827499,"longitude":-83.4786096766316},{"address":"1995 N Curran Rd","city":"Curran","county":"Alcona","day":2,"id":"c8bcb2fb-68d0-5818-87c6-308859160b06","location":"Sunny Side Methodist","name":"Closed Group","slug":"13","state":"MI","time":"20:00","types":"C","latitude":44.7124696316621,"longitude":-83.8077092407926},{"address":"20811 Washington St,","city":"Onaway","county":"Presque Isle","day":2,"id":"1eebb734-adeb-530f-96a2-91dc4cf95cad","location":"St. Paul","name":"Closed Group","slug":"14","state":"MI","time":"20:00","types":"C","latitude":45.3564897375594,"longitude":-84.2297666190816},{"address":"11331 West St","city":"Atlanta","county":"Montmorency","day":2,"id":"f5fe1486-66c4-58d9-9504-6b5d2f3ee5a2","location":"Briley Twp Pk Offc","name":"Closed Group","slug":"15","state":"MI","time":"20:00","types":"C","latitude":45.006066526926,"longitude":-84.144680979197},{"address":"3100 Piper Rd","city":"Alpena","county":"Alpena","day":3,"id":"b05cfe49-18c8-5983-b524-b83e4b7c3445","location":"Alano Club","name":"Over The Bridge","slug":"16","state":"MI","time":"10:30","types":"C","latitude":45.0323408827499,"longitude":-83.4786096766316},{"address":"201 S 2nd Ave","city":"Alpena","county":"Alpena","day":3,"id":"3a68da4e-8544-5021-b61f-f2229d29509c","location":"1st Congregational","name":"Nooners","slug":"17","state":"MI","time":"12:00","types":"C","latitude":45.0617342053724,"longitude":-83.4351335506377},{"address":"201 S 2nd Ave","city":"Alpena","county":"Alpena","day":3,"id":"b25becb2-621f-5347-8ac7-6a67a0a5a6a6","location":"1st Congregational","name":"Closed Group","slug":"18","state":"MI","time":"19:00","types":"C","latitude":45.0617342053724,"longitude":-83.4351335506377},{"address":"3100 Piper Rd","city":"Alpena","county":"Alpena","day":3,"id":"21384e11-cccc-51cb-bda9-c8f3f4e7d4be","location":"Alano Club","name":"Over The Bridge","slug":"19","state":"MI","time":"19:00","types":"C","latitude":45.0323408827499,"longitude":-83.4786096766316},{"address":"118 State St","city":"Hillman","county":"Montmorency","day":3,"id":"43c9f506-12fc-50ce-b880-65fbb42e5ffe","location":"Chemical Bank","name":"Closed Group","slug":"20","state":"MI","time":"19:00","types":"C","latitude":45.0638544091261,"longitude":-83.9005067068247},{"address":"1246 E Spruce Rd","city":"Spruce","county":"Alcona","day":3,"id":"5a4af019-7703-56bf-b957-21901fd7a2b4","location":"Lutheran Church","name":"Closed Group","slug":"21","state":"MI","time":"19:00","types":"C","latitude":44.8435076509974,"longitude":-83.4759390590397},{"address":"10075 M-65","city":"Posen","county":"Presque Isle","day":3,"id":"4c028ce3-bdf6-5910-8388-82c3ed6e4b35","location":"St. Casimir Religious Ctr","name":"Closed Group","slug":"22","state":"MI","time":"19:00","types":"C","latitude":45.2748121598878,"longitude":-83.6976202782028},{"address":"3647 N Lynn St","city":"Onaway","county":"Presque Isle","day":3,"id":"fe5d5313-4321-5c87-b8c2-222bfee884e7","location":"United Methodist","name":"Closed Group","slug":"23","state":"MI","time":"20:00","types":"C","latitude":45.3589021926094,"longitude":-84.2234151462997},{"address":"3100 Piper Rd","city":"Alpena","county":"Alpena","day":4,"id":"42109e50-ac6d-5aff-b0e4-469d971c5c09","location":"Alano Club","name":"Over The Bridge","slug":"24","state":"MI","time":"10:30","types":"C","latitude":45.0323408827499,"longitude":-83.4786096766316},{"address":"322 W Chisholm St","city":"Alpena","county":"Alpena","day":4,"id":"ac29d195-3b30-5113-994c-ee50c6ed0cd6","location":"St. Bernard","name":"Miracles Happen","slug":"25","state":"MI","time":"15:30","types":"C","latitude":45.0648774727492,"longitude":-83.4369412461021},{"address":"201 S 2nd Ave","city":"Alpena","county":"Alpena","day":4,"id":"27c43882-025a-5ec4-86f3-19c3cbe6743d","location":"1st Congregational","name":"Big Book","slug":"26","state":"MI","time":"19:00","types":"C,B","latitude":45.0617342053724,"longitude":-83.4351335506377},{"address":"8959 E Grand Lake Rd","city":"Presque Isle","county":"Presque Isle","day":4,"id":"4777b7b9-24c1-5ba4-a748-0547b4214477","location":"Fire Hall","name":"Closed Group","slug":"27","state":"MI","time":"19:00","types":"C","latitude":45.2935375291088,"longitude":-83.4761572129359},{"address":"3100 Piper Rd","city":"Alpena","county":"Alpena","day":4,"id":"719b2266-ec9a-5546-8a12-a3ac30b40f60","location":"Alano Club","name":"Over The Bridge","slug":"28","state":"MI","time":"19:00","types":"C","latitude":45.0323408827499,"longitude":-83.4786096766316},{"address":"3100 Piper Rd","city":"Alpena","county":"Alpena","day":5,"id":"c7eae203-a132-5df6-b09e-9d42333634e6","location":"Alano Club","name":"Over The Bridge","slug":"29","state":"MI","time":"10:30","types":"C","latitude":45.0323408827499,"longitude":-83.4786096766316},{"address":"124 E Washington Ave","city":"Alpena","county":"Alpena","day":5,"id":"a02b258b-4e94-58d2-a718-d0e5941e5f74","location":"Trinity Episcopal","name":"Closed Group","slug":"30","state":"MI","time":"17:30","types":"C","latitude":45.0611921379749,"longitude":-83.4340833898318},{"address":"3100 Piper Rd","city":"Alpena","county":"Alpena","day":5,"id":"3fc502f6-c19d-56e5-bc9e-dc68bc247e0c","location":"Alano Club","name":"Over The Bridge","slug":"31","state":"MI","time":"19:00","types":"C","latitude":45.0323408827499,"longitude":-83.4786096766316},{"address":"421 Pineview Ct","city":"Hillman","county":"Montmorency","day":5,"id":"9a694f95-f8d1-51ee-82a4-2a6aa831e3dd","location":"Senior Ctr","name":"Big Book","slug":"32","state":"MI","time":"19:00","types":"C,B","latitude":45.0669764487859,"longitude":-83.9025233560898},{"address":"101 E Main St","city":"Lincoln","county":"Alcona","day":5,"id":"edf5fbeb-839b-5be5-ba29-dd15406015be","location":"Methodist Church","name":"Closed Group","slug":"33","state":"MI","time":"19:00","types":"C","latitude":44.6848511694487,"longitude":-83.4099332189226},{"address":"11331 West St","city":"Atlanta","county":"Montmorency","day":5,"id":"dffb43c7-657f-5d28-a47a-3157f94b2987","location":"Briley Twp Pk Offc","name":"Closed Group","slug":"34","state":"MI","time":"20:00","types":"C","latitude":45.006066526926,"longitude":-84.144680979197},{"address":"20811 Washington St,","city":"Onaway","county":"Presque Isle","day":5,"id":"8af866c4-8169-5cc1-b513-7959d1055126","location":"St. Paul","name":"Closed Group","slug":"35","state":"MI","time":"20:00","types":"C","latitude":45.3564897375594,"longitude":-84.2297666190816},{"address":"201 S 2nd Ave","city":"Alpena","county":"Alpena","day":6,"id":"f15fb2a5-7b60-5582-b8b8-edbc1f569578","location":"1st Congregational","name":"Living in the Solution","slug":"36","state":"MI","time":"10:00","types":"C","latitude":45.0617342053724,"longitude":-83.4351335506377},{"address":"630 Walnut St","city":"Alpena","county":"Alpena","day":6,"id":"d7870a91-5208-5e21-893f-6891d5cacb63","location":"Sunrise Centre Modular","name":"Closed Group","slug":"37","state":"MI","time":"15:00","types":"C","latitude":45.0726490372212,"longitude":-83.4334550539476},{"address":"630 Walnut St","city":"Alpena","county":"Alpena","day":6,"id":"2b176962-18d7-53d4-8eeb-eddc58c5403c","location":"Sunrise Centre Modular","name":"Women's Group","slug":"38","state":"MI","time":"18:00","types":"C,W","latitude":45.0726490372212,"longitude":-83.4334550539476},{"address":"3100 Piper Rd","city":"Alpena","county":"Alpena","day":6,"id":"bace9799-06e5-5b71-b904-04886d4ac19a","location":"Alano Club","name":"Over The Bridge","slug":"39","state":"MI","time":"10:30","types":"C","latitude":45.0323408827499,"longitude":-83.4786096766316},{"address":"3100 Piper Rd","city":"Alpena","county":"Alpena","day":6,"id":"2c45ad88-9410-5247-b6e7-99de91b13ed4","location":"Alano Club","name":"Over The Bridge","slug":"40","state":"MI","time":"19:00","types":"C","latitude":45.0323408827499,"longitude":-83.4786096766316},{"address":"11331 West St","city":"Atlanta","county":"Montmorency","day":0,"id":"07202d86-c71c-56ea-9d5f-96e3dddfbbc5","location":"Briley Twp Pk Offc","name":"Closed Group","slug":"41","state":"MI","time":"8:00","types":"C","latitude":45.006066526926,"longitude":-84.144680979197},{"address":"3100 Piper Rd","city":"Alpena","county":"Alpena","day":0,"id":"64560eb6-515b-5386-ad65-6c7528108c6a","location":"Alano Club","name":"Over The Bridge","slug":"42","state":"MI","time":"10:30","types":"C","latitude":45.0323408827499,"longitude":-83.4786096766316},{"address":"1501 W Chisholm St","city":"Alpena","county":"Alpena","day":0,"id":"fee860ba-b20a-5f9b-a388-62e8bfc04f7b","location":"Alpena Hospital Auditorium","name":"Closed Group","slug":"43","state":"MI","time":"10:30","types":"C","latitude":45.0782546455101,"longitude":-83.4503852193055},{"address":"125 W Ontario St","city":"Rogers City","county":"Presque Isle","day":0,"id":"75b16ce9-3c42-5706-812e-7991d9481aea","location":"Westminster Presbyterian","name":"Closed Group","slug":"44","state":"MI","time":"15:00","types":"C","latitude":45.4178771999986,"longitude":-83.8143416934185},{"address":"441 State St","city":"Hillman","county":"Montmorency","day":0,"id":"e7a63120-037f-5aea-a7cc-40dc84ee01da","location":"VFW","name":"Closed Group","slug":"45","state":"MI","time":"19:00","types":"C","latitude":45.0591861869193,"longitude":-83.9016778335937},{"address":"3100 Piper Rd","city":"Alpena","county":"Alpena","day":0,"id":"63f34098-6cdd-579c-95c9-05f337afd2cf","location":"Alano Club","name":"Over The Bridge","slug":"46","state":"MI","time":"19:00","types":"C","latitude":45.0323408827499,"longitude":-83.4786096766316}]